[
	{
		"name": "서울혁신파크",
		"address": "서울특별시 은평구 통일로 684",
		"lat": 37.608442,
		"lng": 126.933496
	},
	{
		"name": "독산역 2번출구 앞 광장",
		"address": "서울특별시 금천구 벚꽃로 115(가산동)",
		"lat": 37.46598732,
		"lng": 126.8895142
	},
	{
		"name": "북서울꿈의숲",
		"address": "서울특별시 강북구 월계로173",
		"lat": 37.62025563,
		"lng": 127.0443254
	},
	{
		"name": "테헤란로83길",
		"address": "서울특별시 강남구 테헤란로83길 12",
		"lat": 37.50819572,
		"lng": 127.0579438
	},
	{
		"name": "상록회관 뒷편",
		"address": "서울특별시 강남구 언주로 508",
		"lat": 37.50396606,
		"lng": 127.0429099
	},
	{
		"name": "테헤란로202",
		"address": "서울특별시 강남구 테헤란로 202",
		"lat": 37.50041013,
		"lng": 127.0379834
	},
	{
		"name": "테헤란로152",
		"address": "서울특별시 강남구 테헤란로 152",
		"lat": 37.50002424,
		"lng": 127.0365086
	},
	{
		"name": "압구정로",
		"address": "서울특별시 강남구 압구정로32길 38",
		"lat": 37.52538646,
		"lng": 127.0296223
	},
	{
		"name": "테헤란로64길",
		"address": "서울특별시 강남구 테헤란로64길 19",
		"lat": 37.50377347,
		"lng": 127.0518024
	},
	{
		"name": "강남역푸드트럭존",
		"address": "서울특별시 서초구 강남대로 399",
		"lat": 37.49826672,
		"lng": 127.026867
	},
	{
		"name": "성모병원사거리",
		"address": "서울특별시 서초구 반포대로 222",
		"lat": 37.50239362,
		"lng": 127.0058606
	},
	{
		"name": "양재역 5번",
		"address": "서울특별시 서초구 남부순환로350길 4",
		"lat": 37.48433811,
		"lng": 127.035167
	},
	{
		"name": "교보타워이면도로",
		"address": "서울특별시 서초구 강남대로69길 8",
		"lat": 37.50184446,
		"lng": 127.0246534
	},
	{
		"name": "반포쇼핑타운4동",
		"address": "서울특별시 서초구 신반포로 189",
		"lat": 37.5065454,
		"lng": 127.004826
	},
	{
		"name": "남부터미널",
		"address": "서울특별시 서초구 효령로 292",
		"lat": 37.48354661,
		"lng": 127.0151109
	},
	{
		"name": "반포쇼핑타운2동",
		"address": "서울특별시 서초구 신반포로 165",
		"lat": 37.5057134,
		"lng": 127.002152
	}
]
